place_name,place_id,place_lat,place_lng,place_type,region
Crôa Mares Restaurante e Receptivo,ChIJtWgsphlgAAcRRC17a-kZHvs,-8.931894,-35.1657023,bar,Peroba
Bar do Carlos (Bar do Nem),ChIJT08wPc5jAAcROX8FgfdGEtQ,-8.9285189,-35.1638792,bar,Peroba
Bar sol e mar,ChIJfZ77I6pjAAcRx7ior242jJQ,-8.927475200000002,-35.1617743,bar,Peroba
Bar Mar e Sol,ChIJJ6tdo89jAAcRLKMErx8oCJU,-8.9275785,-35.1615808,bar,Peroba
Nosso Bar,ChIJN_0gxshjAAcRP-tFebMwSDA,-8.9267147,-35.1612134,bar,Peroba
"Gobber's Bar, the Peroba Beach",ChIJt8tOTtRjAAcRfwkpK7H6v40,-8.935351500000001,-35.1673294,bar,Peroba
Trailer Bar (Bar da Praia),ChIJBVemrzhjAAcRY8BKOS99QNc,-8.921908799999999,-35.1566751,bar,Peroba
Gêmeos motos,ChIJKzhPPrFjAAcR9-PaRHn7Vjo,-8.926280199999997,-35.1617284,car_repair,Peroba
Studio Talita Moura,ChIJ_Z2MFEBjAAcR3HnrMfg9ddc,-8.9323018,-35.1720111,hair_care,Peroba
Rafa Santos Barbershop,ChIJYxghHVFjAAcRvrAcWxwbepw,-8.935231100000001,-35.1691537,hair_care,Peroba
Ponta Do Mangue,ChIJOY3d9NNjAAcRkQeHvjtzk_Q,-8.933333,-35.16666689999999,hospital,Peroba
N Park Jota,ChIJYcUXDMljAAcRCHxBKHdYV6I,-8.922507,-35.1637086,park,Peroba
Estacionamento Peroba,ChIJMZf9kfljAAcRTTRP8ym5yTw,-8.921481799999999,-35.15760619999999,parking,Peroba
Farmácia Santo Cristo,ChIJ0S6kq89jAAcRXIiGdoWzrks,-8.927087600000002,-35.162527,pharmacy,Peroba
State Highway Patrol,ChIJTy4NhbhjAAcRXGsPm__CoMQ,-8.920069699999997,-35.15657789999999,police,Peroba
Peixaria Sinfonia Pescados,ChIJq0D4S3ljAAcRpgzwYLJB2iQ,-8.929791199999999,-35.1659143,store,Peroba
Mercadinho e Peixaria do Kiko,ChIJ-dg1qs9jAAcRSA3zW4BDtKw,-8.9270889,-35.1623615,store,Peroba
Laje São Paulo,ChIJKQfQtmdjAAcRgFfiEM3FSKw,-8.9242637,-35.1605232,store,Peroba
Sorveteria Camocim,ChIJRznJrqdjAAcROoxlO7Ma8k8,-8.924171699999999,-35.1599779,store,Peroba
EDILSON BROTHER MARKET,ChIJuUK1oixiAAcRH2rjUEef6fs,-8.9323281,-35.17216559999999,store,Peroba
PEIXARIA DO BAÚ,ChIJo40kZjBjAAcRdy7iSqvmh1E,-8.934571399999998,-35.1686485,store,Peroba
JDS Apoio Patrimonial,ChIJw6JHyNRjAAcR_psc7z8DeBs,-8.934354200000001,-35.17030739999999,store,Peroba
Bar da Praia Porto do Sol,ChIJr6O32KVhAAcRd9kJ2XEyLeQ,-8.956365,-35.1726904,bar,Ponta de Mangue
Tua Casa Hamburgueria e Petiscaria Delivery,ChIJwclmKVNhAAcRklhIySowtJ0,-8.955775599999999,-35.1768151,bar,Ponta de Mangue
Sabor Do Mar Maragogi,ChIJD-b1S6BhAAcRJBu18iLbOx0,-8.9575943,-35.1733464,bar,Ponta de Mangue
Ponta Do Mangue,ChIJf2UaJ6BhAAcRvfE26ls23aI,-8.9563192,-35.17270769999999,bar,Ponta de Mangue
Bar do Lula,ChIJH-qaVp5hAAcRIU_ePH4G6uc,-8.9534726,-35.1734027,bar,Ponta de Mangue
"Petiscaria da Rocha, Ponta Do Mangue, Maragogi, Al",ChIJNZUYk6ZhAAcRxsJHiOv4PvY,-8.9622044,-35.1750888,bar,Ponta de Mangue
EsterAnália,ChIJoyrSB4xhAAcRWc6TjTS4AbM,-8.9531176,-35.1796916,clothing_store,Ponta de Mangue
Camping Jesus,ChIJbWGLUaBhAAcRH20tpp0y5lA,-8.9579778,-35.1732589,park,Ponta de Mangue
Camping maragogi,ChIJtZ7g5tthAAcRPG6n8WWSWcQ,-8.954091799999999,-35.1722367,park,Ponta de Mangue
Hostel e Camping Revive,ChIJdZyeiXthAAcRWVxHWA6ZWLQ,-8.962187700000001,-35.1756185,park,Ponta de Mangue
Mercadinho do Careca,ChIJB2Q5GZlhAAcRUdcQG2HcsLI,-8.9529581,-35.177984,store,Ponta de Mangue
Panificadora Agrande Família,ChIJedWQ6KphAAcR6xuC07oqstE,-8.9852335,-35.1954323,bakery,Barra Grande
Caldinho Do Allef,ChIJCYE-tUJhAAcRoHrJ4jTckxM,-8.9849473,-35.1961697,bar,Barra Grande
Quiosque Bar Praiano,ChIJfbk4IkJhAAcR_KBecerG2JY,-8.9854115,-35.1942376,bar,Barra Grande
Cantinho do sussego,ChIJn7jjgQZhAAcRuw4m_nWI_wc,-8.982822,-35.1945037,bar,Barra Grande
Buteco Arnaldo,ChIJu-soH6bhqgcR-3YgLyRU4lE,-8.982161999999999,-35.1949321,bar,Barra Grande
Buteco Do Arnaldo,ChIJ4T3R0uNhAAcRQGk7i-d5b7s,-8.982031099999999,-35.1949026,bar,Barra Grande
Bar Pousada Sol e Mar,ChIJyxzfnD9hAAcR3SBd9ER91XM,-8.9854395,-35.1913951,bar,Barra Grande
Meraki Beach,ChIJ-_8PN0ZgAAcR5Ya-Cd9TYLU,-8.9836286,-35.1895233,bar,Barra Grande
Pointer da barra,ChIJPZAaurxhAAcRpZuWRHjZ7ck,-8.9835785,-35.1894022,bar,Barra Grande
Petiscaria Burgalhau Point Beach,ChIJlf4QAhVhAAcRHc6n3llccS0,-8.9955364,-35.2046904,bar,Barra Grande
Espaço Beleza GLEICA KONSTANTINE,ChIJFS9TC9ZhAAcR026lMRV2jVI,-8.985354599999997,-35.1969314,beauty_salon,Barra Grande
Cafe Nordestino E CIA,ChIJGYUjHkJhAAcR-Pd2nU6-eyo,-8.988927099999998,-35.2005073,cafe,Barra Grande
Oficina Costa Diesel,ChIJp-XndkhgAAcRBgADMkvxS2w,-8.985761600000002,-35.197726,car_repair,Barra Grande
Oficina Do Edinho,ChIJ1R4-vaZhAAcRwg8FxBXjBig,-8.9840847,-35.1960035,car_repair,Barra Grande
Ferro Velho E Reboque Do Teia,ChIJyUdwRFNhAAcRBflCSSM0_PY,-8.9830292,-35.1961319,car_repair,Barra Grande
Litoral Náutica Barra Grande Maragogi,ChIJrUIPl0RhAAcRWqVoCKRlcdI,-8.9814565,-35.1939951,car_repair,Barra Grande
Igreja Evangélica Assembléia de Deus missão,ChIJHx8OpiZhAAcR_yp0wglzBbo,-8.9828203,-35.1951723,church,Barra Grande
Posto Marcol,ChIJFc5GGDxgAAcREENLEYtPEiA,-8.987143,-35.1989473,gas_station,Barra Grande
Posto Ipiranga - Marcol Maragogi,ChIJFc5GGDxgAAcRiLeJ17sZ42o,-8.987143,-35.1989473,gas_station,Barra Grande
Posto Autentico - Dislub,ChIJ77YHzDlgAAcRNz6OlFko350,-8.9825923,-35.1959185,gas_station,Barra Grande
Praça Do Boi,ChIJ525sLjhgAAcR-SzGv1JdkiY,-8.9823,-35.19520740000001,gas_station,Barra Grande
Mastergá,ChIJa7Q-Y0hgAAcRGq-TsMhU5Fk,-8.9816416,-35.19045889999999,gas_station,Barra Grande
Barbearia Popular,ChIJzcGkRTlgAAcRcP6CR89N7xA,-8.9855714,-35.1974872,hair_care,Barra Grande
Zito Barber Shop,ChIJyz8gBmRhAAcRjJM7ONvMjjM,-8.9852464,-35.19686739999999,hair_care,Barra Grande
Deposito De Bebidas E Mercadinho Do Wila,ChIJRWVVHjlgAAcROrstt67P1es,-8.985090800000002,-35.195781,liquor_store,Barra Grande
Mamamia Pizza,ChIJiSSRxThgAAcRCwrU1NpWgPM,-8.986087900000001,-35.1948555,meal_takeaway,Barra Grande
Barra Açaí,ChIJBeGt4DhgAAcRqeB5K9feYI0,-8.9852169,-35.1953372,meal_takeaway,Barra Grande
Caldo De Cana Dos Ciclistas,ChIJXb-bjDdgAAcR45kqXpB-DEo,-8.981558199999998,-35.1943329,meal_takeaway,Barra Grande
Beira Mar Camping and Chalet,ChIJsQVekUhgAAcRlTUG0l9qab8,-8.981530399999999,-35.1890028,park,Barra Grande
Cerâmica Barra Grande,ChIJGafrFDlgAAcRl4wgX5F1PpI,-8.9849287,-35.1968564,store,Barra Grande
Mercadinho do Felipe,ChIJW3VabPZhAAcRwLySiFYtrL8,-8.988189600000002,-35.1998475,store,Barra Grande
Viviane utilidades,ChIJH1SMKXJhAAcRQRB3LR6gIiA,-8.9851016,-35.1958927,store,Barra Grande
Mercadinho MARIMAR,ChIJ_7JuJkRhAAcRmhXH_T8Z5p4,-8.9837869,-35.1955514,store,Barra Grande
Empório Natuflor,ChIJQQJHd4thAAcRTc5X--PwdwU,-8.985862299999999,-35.1947542,store,Barra Grande
Mercadinho Do Sérgio,ChIJe9X0Sz9gAAcRLh0kOs1-Kmc,-8.9868356,-35.19390490000001,store,Barra Grande
Mercadinho Melo,ChIJSSRgsThgAAcRbuTPGH0VrnQ,-8.9863973,-35.1937606,store,Barra Grande
Banco de Areia Maragogi,ChIJSQoNlDRhAAcRvbspkgvmg_k,-8.9880674,-35.1941306,tourist_attraction,Barra Grande
Caminho de Moisés,ChIJze51lZFhAAcR-EbH6J-nPHI,-8.990827399999999,-35.19160550000001,tourist_attraction,Barra Grande
House Bread,ChIJAR1In1H1AAcRV-nd0uHJ1IU,-9.01254,-35.223393,bakery,Maragogi Centro
Padaria Panificadora Marquesa,ChIJkbVhcVD1AAcRK4NgcmND6pw,-9.015747199999998,-35.2240742,bakery,Maragogi Centro
Cakes arte com açúcar - Talita Lucas,ChIJuVn0Fzf1AAcR1KMfp4WDOL8,-9.013337700000001,-35.2226417,bakery,Maragogi Centro
Padaria Do Geninho,ChIJc5xCF1H1AAcRvZ-mJIfVsp4,-9.0131675,-35.2219742,bakery,Maragogi Centro
Master pão,ChIJ5TKcy7_1AAcRd3HxPI6P99U,-9.0126674,-35.22387409999999,bakery,Maragogi Centro
Padaria Maragogi,ChIJ63BwPVH1AAcRqQfY56UQ8LA,-9.0132421,-35.2216521,bakery,Maragogi Centro
Eliane,ChIJ9_CiI-31AAcR2F8OVP7Gwag,-9.0103578,-35.2196313,bakery,Maragogi Centro
Bradesco Dia&Noite,ChIJk_K1qgVgAAcRVb92L-3tv3Q,-9.0134411,-35.2220186,bank,Maragogi Centro
Banco do Brasil,ChIJl4stQVH1AAcRf-KDEUlg99M,-9.0125768,-35.221418,bank,Maragogi Centro
Caixa Economica Federal,ChIJ6TdG_FP1AAcRyzsLwc_wt5A,-9.011542,-35.2207843,bank,Maragogi Centro
Banco do Nordeste,ChIJNQv0AI_1AAcRnLwQPZKqOqk,-9.013053299999997,-35.2214473,bank,Maragogi Centro
Bancos,ChIJRQAGGlv1AAcRYGum4PoqNQI,-9.0189421,-35.2240761,bank,Maragogi Centro
Casa do Bruno,ChIJf-VLpTv1AAcRdvZML-KJn9A,-9.0148263,-35.2248424,bar,Maragogi Centro
Russo Gastrobar Maragogi,ChIJea2ciVr1AAcRinVDorL3ddQ,-9.0170314,-35.2233897,bar,Maragogi Centro
Boteco do Caribe,ChIJYdoaN-D1AAcRwX4EbcJY6YQ,-9.0131735,-35.2225465,bar,Maragogi Centro
Gil BEBIDAS,ChIJq6oaRlH1AAcRlX80LijXazk,-9.0133244,-35.2217571,bar,Maragogi Centro
Mimo’s Bar e Restaurante,ChIJL1HdI1H1AAcRayJQT-fM6Pc,-9.0135904,-35.2214668,bar,Maragogi Centro
Bar e Restaurante Lua Cheia,ChIJOevhOlH1AAcR-4Ei-DIyqn8,-9.013412500000001,-35.22118229999999,bar,Maragogi Centro
Botteco 88,ChIJB9z4isv1AAcRo_cqdkFhirE,-9.0181802,-35.22376719999999,bar,Maragogi Centro
Restaurante/Bar Ponto De Encontro,ChIJPbvDOVH1AAcRa_I2WjjmQzY,-9.012848,-35.22087049999999,bar,Maragogi Centro
Bar e Restaurante Brilho do Mar,ChIJ8cAeEFT1AAcR4VgsU817f6k,-9.0112962,-35.2196474,bar,Maragogi Centro
Maragomar Bar E Restaurante.,ChIJ0_BM5ZX1AAcRNTjVDxAlAb0,-9.01043,-35.2189825,bar,Maragogi Centro
Kasa,ChIJ9fGmH631AAcRa7xV2NrRS2I,-9.008335500000001,-35.2227296,bar,Maragogi Centro
Restaurante E Petiscaria Chapa Quente,ChIJJ2BZXlT1AAcRBkX2VTQMhhM,-9.0096633,-35.2187319,bar,Maragogi Centro
Pallet Bar Maragogi,ChIJPUU19VT1AAcRHdLN__TOl_8,-9.009307399999999,-35.21882689999999,bar,Maragogi Centro
Bola da Vez Sinucas Bar,ChIJ2Wj341T1AAcRjG17a7YMOng,-9.0088673,-35.2179229,bar,Maragogi Centro
Point do caldinho Maragogi,ChIJHS0ISHr1AAcRSjcnoTjeZVg,-9.007486,-35.21992900000001,bar,Maragogi Centro
Restourante tempero da vó,ChIJFy4c8XH1AAcRiy7fznNIyfw,-9.026317999999998,-35.22615529999999,bar,Maragogi Centro
Nete Cabeleireira,ChIJ6ZTUC1H1AAcRsutgcWQPclg,-9.01296,-35.222944,beauty_salon,Maragogi Centro
Isa Miranda Studio,ChIJ6SgQ4Vz1AAcRCU3LpEtpvb0,-9.0135724,-35.22361679999999,beauty_salon,Maragogi Centro
Isa Miranda Studio,ChIJ_wyOwPj1AAcRse-ROQryb9E,-9.0128947,-35.2236672,beauty_salon,Maragogi Centro
Clube do esmalte maragogi,ChIJg9SYtraLAAcRAQhaT-Wunhs,-9.0072052,-35.2187779,beauty_salon,Maragogi Centro
Porto Dos Milagres,ChIJxQ8bElH1AAcR4NFnpDR81IM,-9.013001899999999,-35.2223402,cafe,Maragogi Centro
Líder bolos,ChIJRUctUjiLAAcRKgb8iiDlkiI,-9.0127428,-35.2230852,cafe,Maragogi Centro
Pães & Cia,ChIJ2b1TKqD1AAcRhWmoVQVQeZ8,-9.012715499999999,-35.2226186,cafe,Maragogi Centro
Degutti Coffee and Crepes Maragogi.,ChIJbxZdP1H1AAcR_PhAvI0Vm0o,-9.0129355,-35.2214607,cafe,Maragogi Centro
Flats Marbello,ChIJYV6c6VT1AAcRwa83zfnvsgs,-9.007863,-35.2179506,cafe,Maragogi Centro
C J Locadora de Veículos,ChIJKxKLdQRgAAcRPdF5pqNDue8,-9.009260099999999,-35.2184147,car_rental,Maragogi Centro
Rio's Rent Car - Aluguel Locação e Traslado de Vans Ônibus e Micro Ônibus em Maragogi - Passeios e Turismo - Transfer em Maragogi AL,ChIJy9ehikL1AAcRxr2mSqJjKs4,-9.009661399999999,-35.2197051,car_rental,Maragogi Centro
Borracharia Mariano,ChIJfXNmulr1AAcRU0siAWn-CYg,-9.016723299999999,-35.2250193,car_repair,Maragogi Centro
Ral Auto Peças,ChIJEc-kn1H1AAcR9iBnW67Tc3M,-9.0123075,-35.22438959999999,car_repair,Maragogi Centro
Galego Moto Peças,ChIJPU8fTK2KAAcRQEe6WxN-U64,-9.006332,-35.224882,car_repair,Maragogi Centro
Oficina do tio,ChIJ9yyfQF31AAcRsPDmBk3S8pU,-9.0242297,-35.2263537,car_repair,Maragogi Centro
Igreja de Santo Antônio,ChIJTZ3LclH1AAcRoJ5ZHRVl1uc,-9.012699999999999,-35.222507,church,Maragogi Centro
O Boticário,ChIJKxKLdQRgAAcRnZZxTZin558,-9.0104568,-35.220828,clothing_store,Maragogi Centro
Império Magazine,ChIJxQ8bElH1AAcRC-MoNoU6h4A,-9.013001899999999,-35.2223402,clothing_store,Maragogi Centro
Stark moda masculina,ChIJbadh4jj1AAcROQ7YEuRAiCo,-9.014961699999999,-35.2226327,clothing_store,Maragogi Centro
Class Beach Moda Praia,ChIJxWMXnwX1AAcRlZf5-v1Ibj4,-9.0152529,-35.22243139999999,clothing_store,Maragogi Centro
Ohana Moda Praia,ChIJY2pASPb1AAcRRje24JkK9Jw,-9.015119499999999,-35.2221723,clothing_store,Maragogi Centro
Mini Julia Moda Infantil,ChIJQQL4HUX1AAcRHLSlrGQaePc,-9.0165417,-35.2250637,clothing_store,Maragogi Centro
Denise Artes Crochê,ChIJq6DTCVH1AAcRGNszThj1byM,-9.013077800000001,-35.2230611,clothing_store,Maragogi Centro
Regina modas,ChIJDdvAo4j1AAcR8-FvrcIwD0g,-9.0136661,-35.2215269,clothing_store,Maragogi Centro
RM MODAS,ChIJ18qTVY_1AAcR9ccJrZKQ7R0,-9.0126642,-35.2226953,clothing_store,Maragogi Centro
Caribe Skate Surf,ChIJZyNEGPL1AAcRXygZegP99eA,-9.0179054,-35.2240286,clothing_store,Maragogi Centro
Kl Modas,ChIJ_VKvO1H1AAcRXbHaQ-1beUo,-9.013102499999999,-35.22157869999999,clothing_store,Maragogi Centro
Casa Matias,ChIJuXdjvlH1AAcR4t8c0fYLA8M,-9.0123249,-35.2244452,clothing_store,Maragogi Centro
Denise Artes Crochê,ChIJk6Gp31r1AAcR1zcvBgBlQNY,-9.018348099999999,-35.2241746,clothing_store,Maragogi Centro
Moda Praia,ChIJWSG4zK_1AAcRXGRkjZYHLgg,-9.0114538,-35.2197608,clothing_store,Maragogi Centro
Garage for men,ChIJ5aoJCVT1AAcRR6B6igVAirA,-9.011011000000002,-35.2200943,clothing_store,Maragogi Centro
Bem Vestida Moda Feminina,ChIJ5f5fw_v1AAcRQf-J7OnaevY,-9.0099962,-35.21989609999999,clothing_store,Maragogi Centro
Danny Love Atelier,ChIJdUzJJH_1AAcRvKMwy7xWJJc,-9.0075314,-35.22012650000001,clothing_store,Maragogi Centro
Vitalle cosméticos e presentes,ChIJGTgVx1T1AAcRga5EZXXkaDc,-9.008058,-35.2188779,clothing_store,Maragogi Centro
Container Artesanato,ChIJmVwYemj1AAcRaTQq4QKKwyw,-9.026979299999999,-35.2262144,clothing_store,Maragogi Centro
Artesanato Moda Praia,ChIJ-aJVr__1AAcRhNLH2rsVVVQ,-9.027425599999997,-35.22661340000001,clothing_store,Maragogi Centro
Conveniência ETC & TAL,ChIJt75PbQ31AAcRdCbV1HypkiI,-9.0158142,-35.222509,convenience_store,Maragogi Centro
Artesanato e Conveniência Maragogi,ChIJCTifrtn1AAcRWrntVwcauCA,-9.014303599999998,-35.2219276,convenience_store,Maragogi Centro
A Taberna Conveniência,ChIJcZ5YCI_1AAcRCtzuZj4_Aq0,-9.0139655,-35.2217335,convenience_store,Maragogi Centro
Conveniência Rodrigues - Maragogi/AL,ChIJb4Fa2vj1AAcRMZnZB9OyKkM,-9.013131999999999,-35.2212262,convenience_store,Maragogi Centro
LOJA DE CONVENIÊNCIA,ChIJBXAC-1T1AAcRDOOALkiY5sU,-9.011446,-35.219839,convenience_store,Maragogi Centro
Mix Conveniência,ChIJOZwtT6_1AAcRglSK-ULG7kk,-9.023959399999999,-35.2263328,convenience_store,Maragogi Centro
Drogaria Luna,ChIJ09XWF1H1AAcRsqfquWLNW6w,-9.0130801,-35.2218951,drugstore,Maragogi Centro
J. L. G. do Nascimento Silva Drogaria,ChIJK5FPjFP1AAcRKEIKVQ8bE-Y,-9.0103679,-35.2208181,drugstore,Maragogi Centro
TR TECNOLOGIA EM AUTOMAÇÃO COMERCIAL,ChIJ72OwmcD1AAcRqm5NSCxbYW8,-9.0107185,-35.2198689,electronics_store,Maragogi Centro
MD CELL,ChIJhdQDqrv1AAcRWGymO_TnDng,-9.009196600000001,-35.2187471,electronics_store,Maragogi Centro
Sabiá equipadora,ChIJZ5Of_GiLAAcRDFqmGJe18OE,-9.003763999999999,-35.22250699999999,electronics_store,Maragogi Centro
Posto Ipiranga,ChIJ6VbSpOwzb5MRnPJDymRd4DQ,-9.0134357,-35.22508030000001,gas_station,Maragogi Centro
Posto Petrobras,ChIJUbP4Nlv1AAcRQ3kwOI1Ri1I,-9.0192614,-35.225343,gas_station,Maragogi Centro
Posto Petrobras,ChIJPxU4gsb1AAcRzP2aiH2-j2o,-9.0125,-35.22154,gas_station,Maragogi Centro
AL. Treinamento Funcional,ChIJ3X6ruj71AAcR76rfH2FXZ-w,-9.007294,-35.21865500000001,gym,Maragogi Centro
Barbearia irmão beto,ChIJmfQZmCz1AAcRPU62YrnzK5s,-9.0125084,-35.2217558,hair_care,Maragogi Centro
Barbearia do Teté,ChIJbc7yIjz1AAcRKQ8GgKDeI0M,-9.0078882,-35.221302,hair_care,Maragogi Centro
Armarinho Luna,ChIJ0dLWTOf1AAcR2nOxKDERkcQ,-9.013238,-35.2219091,home_goods_store,Maragogi Centro
Rendeiras,ChIJ4yVOjFP1AAcRpL_wB2Wv_2U,-9.0103864,-35.2208382,home_goods_store,Maragogi Centro
Clincare Maragogi,ChIJF0bYI-j1AAcRahauksLRo7s,-9.0165785,-35.2254566,hospital,Maragogi Centro
Unidade MISTA,ChIJSxm4o1H1AAcRjKFlMf9aD0U,-9.012690899999999,-35.2235306,hospital,Maragogi Centro
Upa Santo Antônio de Maragogi,ChIJj3FrUVv1AAcRh0oaHALqWL8,-9.0201537,-35.2253943,hospital,Maragogi Centro
Pronto atendimento,ChIJVTu2oyH1AAcRpM5t0pwH1o8,-9.0092348,-35.218507,hospital,Maragogi Centro
Lavanderia Santorini,ChIJIdk4cdL1AAcRoTlCwPkn_Sw,-9.0152508,-35.2224131,laundry,Maragogi Centro
Lavanderia Jangadeiros,ChIJMc90i1_1AAcRfC251tcOOkw,-9.018137700000002,-35.2253238,laundry,Maragogi Centro
Conveniência e Bebidas Altas Horas,ChIJw7qidu31AAcRxeRQ1ZeoiZI,-9.0156037,-35.2241581,liquor_store,Maragogi Centro
Naete pizzas,ChIJuXtLGzL1AAcRkBnbZ1jaEfo,-9.010916700000001,-35.2200176,meal_delivery,Maragogi Centro
Pastelaria Cantinho Do Pastel,ChIJOZydwlr1AAcRTjj_NF7ZIE8,-9.0174314,-35.2237185,meal_takeaway,Maragogi Centro
Flora Brasil,ChIJUawQGFH1AAcRjQZL2dIQrnE,-9.013506299999998,-35.2217884,meal_takeaway,Maragogi Centro
I Love coxinha Maragogi,ChIJAQAAAMCLAAcRlcKjxFh2JTk,-9.0130459,-35.2215357,meal_takeaway,Maragogi Centro
Açaí Concept Maragogi,ChIJJfORU1H1AAcRy1SXmlDUecc,-9.013147,-35.2212356,meal_takeaway,Maragogi Centro
Tapioca Da Martha,ChIJewukHlT1AAcRY3mWWXJ7bIg,-9.012169900000002,-35.2203863,meal_takeaway,Maragogi Centro
Point Do Sanduba,ChIJ____BFT1AAcRAzc-F16oEyE,-9.0113439,-35.22004630000001,meal_takeaway,Maragogi Centro
restaurante croa mar,ChIJ4yVOjFP1AAcRoKhiZ-H8ScE,-9.0103864,-35.2208382,meal_takeaway,Maragogi Centro
Square St. Anthony,ChIJAdtoDVH1AAcRY8C-XfYqFS0,-9.0128035,-35.22245400000001,park,Maragogi Centro
Aluguel de Garagens Dois Irmãos,ChIJBz93n1r1AAcRfAs09jWhajs,-9.016295999999999,-35.2244154,parking,Maragogi Centro
Farmácia Santo Cristo,ChIJH8wEGVH1AAcRTcqJgCixc-4,-9.013599,-35.221973,pharmacy,Maragogi Centro
Farmacia Populat,ChIJR5hNoFH1AAcRvxs7sTIRkjk,-9.0127275,-35.2232913,pharmacy,Maragogi Centro
6° Batalhão de Polícia Militar de Alagoas,ChIJFQOnEFD1AAcRkUH7IEbGGWM,-9.015162199999999,-35.2249374,police,Maragogi Centro
Delegacia do Trabalho,ChIJKxKLdQRgAAcR8_vtIrO74tU,-9.0076887,-35.2181103,police,Maragogi Centro
calçados e cosmeticos,ChIJ8-0XtFH1AAcRDFkbvrwY9zM,-9.012902,-35.22299,shoe_store,Maragogi Centro
Paraiso das havaianas,ChIJk27IDZz1AAcRUbM4e1ZF1DQ,-9.014972600000002,-35.2225598,shoe_store,Maragogi Centro
Belle de jour sex shop,ChIJHYJVJvz1AAcRuFcUl2uy30E,-9.0114438,-35.2197513,shopping_mall,Maragogi Centro
Construllar Materiais de Construção,ChIJSaowRFD1AAcRLrBRVTW1Oi0,-9.014475000000001,-35.224056,store,Maragogi Centro
Pizzaria De Boa,ChIJO3-vjlD1AAcRPMCMrO8Xy3I,-9.016022,-35.224979,store,Maragogi Centro
AZEVEDO CONSTRUÇÕES MARAGOGI,ChIJ71RVVTlgAAcRSfTElxiQT_s,-9.010367899999999,-35.220818,store,Maragogi Centro
LAN HOUSE DO NANDO,ChIJReOHhLf1AAcR1wZ1Cy7uoo0,-9.014862599999999,-35.2234208,store,Maragogi Centro
Roberta Lira Centro de Saúde e Estética,ChIJBb9bftX1AAcRkIT-g4_bCxI,-9.014472699999999,-35.2241201,store,Maragogi Centro
Upmake4you,ChIJ98yrP1P1AAcRgAxeb4iWS1A,-9.0142587,-35.2227474,store,Maragogi Centro
Mercearia Danielle,ChIJi4p70J71AAcRd_MyFG4BP0w,-9.013931399999999,-35.22374810000001,store,Maragogi Centro
Espaço Mabelli - Maragogi,ChIJd09naKT1AAcRlPlpoMBRTdk,-9.0143235,-35.22236760000001,store,Maragogi Centro
Armazem Casa e Construção,ChIJtZIc1u71AAcRv_sCBSRZSNg,-9.015479899999997,-35.2249647,store,Maragogi Centro
Sorveteria Fino Sabor,ChIJkYw4bd31AAcRBxbr5osrVr4,-9.014348499999999,-35.22195749999999,store,Maragogi Centro
Bomboniere Matias,ChIJr78ZA1H1AAcRrraO35mkaWc,-9.0137006,-35.2225038,store,Maragogi Centro
Tropical fruit sorvete na chapa,ChIJO_OKyN31AAcR8D6amFfaq60,-9.0166504,-35.2245927,store,Maragogi Centro
PARADA.COM,ChIJa-zeBsH1AAcR1M3XUM_gY3w,-9.0156458,-35.22530629999999,store,Maragogi Centro
Loja Rei dos Reis Artigos Evangélicos,ChIJL_DMBf_1AAcR-NaDI1n5MIs,-9.013709899999998,-35.22201879999999,store,Maragogi Centro
Frigorífico Maragogi,ChIJRR0AsFr1AAcRyNUme0-EpYg,-9.016513699999999,-35.2251358,store,Maragogi Centro
Sorveteria Pingo,ChIJE3_HDlH1AAcRWm6YYyumKtI,-9.013055000000001,-35.2226918,store,Maragogi Centro
Supermarket Good Priceuni,ChIJ84TuGFH1AAcR5-61u6BqNlo,-9.0133177,-35.2219693,store,Maragogi Centro
Delícias da Bebel,ChIJZdyVF1H1AAcRAnG8ZWkwLS8,-9.013310299999999,-35.2219461,store,Maragogi Centro
Baiano Cell,ChIJE2rKiIP1AAcRBjop_A4yrQw,-9.0128753,-35.2228102,store,Maragogi Centro
Mahogany,ChIJRzaGOBL1AAcRSOf3YTrdEKQ,-9.013627099999999,-35.22151120000001,store,Maragogi Centro
Lanchonete e Sorveteria Milk Shake Tropical,ChIJ5xzwI1H1AAcR02zKvtMbhKs,-9.0136921,-35.2213868,store,Maragogi Centro
Fri-Carne,ChIJQV3mClH1AAcRoiQF82agVZk,-9.012736900000002,-35.222952,store,Maragogi Centro
Supermar supermercado,ChIJ3VjQC4r1AAcRgx0uVOQg0HM,-9.0166378,-35.225564,store,Maragogi Centro
RELOJOARIA MBPINHEIRO,ChIJx8w87p71AAcRDxPMf1WbSdY,-9.0126674,-35.22387409999999,store,Maragogi Centro
Capricho do Maragogi,ChIJueqqE1H1AAcRaRslRYFz09M,-9.0127347,-35.2221163,store,Maragogi Centro
Construluna Maragogi Material de Construção,ChIJ3WeWP1P1AAcRnf8mbDDNp6g,-9.0172383,-35.2254518,store,Maragogi Centro
Sorvemar Maragogi,ChIJcQOsKtb1AAcRry8svc-WhQQ,-9.018201000000001,-35.2237827,store,Maragogi Centro
Loja Mel Maragogi,ChIJ_Szhk1H1AAcRI1PpSMI4atM,-9.012172999999999,-35.224149,store,Maragogi Centro
Mercadinho Aviario,ChIJoRy_ulL1AAcRSQk58duej-U,-9.0072355,-35.2250775,supermarket,Maragogi Centro
Mercadinho Pão Diário,ChIJ316nW6T1AAcRw7DjUk5u_Jk,-9.0082445,-35.2187062,supermarket,Maragogi Centro
Maragogi Beach,ChIJawYxWlT1AAcR04bRR7hRYB0,-9.0099646,-35.2184365,tourist_attraction,Maragogi Centro
Maragogi Orla,ChIJ7Vno21D1AAcRgqOGVtiTA1w,-9.0143454,-35.2212959,tourist_attraction,Maragogi Centro
Praia de Alagoana maragogi,ChIJo7oZl1r1AAcR9W9BPyrlsfM,-9.0176456,-35.2234455,tourist_attraction,Maragogi Centro
City Maragogi Alagoas - beach,ChIJAQCRhxD1AAcRldg4lGF_RPg,-9.0176456,-35.2234455,tourist_attraction,Maragogi Centro
Uerê SUP & BIKE,ChIJVeAbCmj1AAcRcUileMmfpfU,-9.026092,-35.2259002,tourist_attraction,Maragogi Centro
M&A - Bolo de Goma,ChIJ1f8--Lz1AAcR566VJajpVpA,-9.053917,-35.240326,bakery,Sao Bento
Bolachas Kdelicia,ChIJTUw1I7_1AAcRtJDmdioi-tE,-9.0555693,-35.24306170000001,bakery,Sao Bento
Dalena Biscoitos Tipo Maragogi,ChIJn0bn1r71AAcRdxF-IJELCMU,-9.058298599999999,-35.2418282,bakery,Sao Bento
padaria e lanchonete,ChIJNdXX16L1AAcR15-vWI31Kog,-9.051281999999999,-35.239571,bakery,Sao Bento
Bar Dos Amigos,ChIJK9zqcrz1AAcRSaY4cvRkL5A,-9.0549377,-35.2417219,bar,Sao Bento
O Buteco,ChIJP55n_r71AAcRJQWyy-xyo1k,-9.0586155,-35.2397572,bar,Sao Bento
Bar Da Cida e do Nego,ChIJuWYJ_r71AAcRioW260L4rq4,-9.058672699999999,-35.23989969999999,bar,Sao Bento
O Buteco Do Neguinho,ChIJWfcrAr_1AAcR4F_nxitISaI,-9.0588525,-35.2399351,bar,Sao Bento
Bar e restaurante da varanda,ChIJvc_s4kv1AAcRCmRC2UunV5Q,-9.050759800000002,-35.2421176,bar,Sao Bento
Elisângela Santos Studio de Beleza,ChIJs8HwP5b1AAcRABG0ot7LhT8,-9.0551041,-35.2409448,beauty_salon,Sao Bento
Bomboniere e Casa Do Bolo Costa Do Sabor,ChIJa6MiLR71AAcRiRLP2nN4vps,-9.0601212,-35.241847,cafe,Sao Bento
Maragogi Crochê,ChIJt7ucYub1AAcRj5iiYcEjaPM,-9.0561247,-35.2415128,clothing_store,Sao Bento
Loja Queen Modas,ChIJ9VTirHX1AAcRM_hbP0bC6cI,-9.057827099999999,-35.242357,clothing_store,Sao Bento
Dalena Biscoitos Tipo Maragogi,ChIJu-UZ1771AAcRgNyn82R_J68,-9.058317599999999,-35.2417624,convenience_store,Sao Bento
Fabrica De Bolachas,ChIJn0bn1r71AAcRd3101EBWQ2c,-9.058298599999999,-35.2418282,home_goods_store,Sao Bento
UBS ERALDO MENDES DE VANCONCELOS,ChIJGff-L5P1AAcRbCloVxeSRFI,-9.059108099999998,-35.242017,hospital,Sao Bento
Farmácia Caruaru,ChIJxUuDSdv1AAcR8uLroCKyZrw,-9.0572588,-35.2420418,pharmacy,Sao Bento
FARMÁCIA SÃO BENTO,ChIJvVn5DZ31AAcRIZMX843hsTY,-9.0526514,-35.2409146,pharmacy,Sao Bento
CONSTRUCTION AZEVEDO MARAGOGI,ChIJgfvZDrz1AAcRdGou_tNwxUs,-9.055441799999999,-35.2420997,store,Sao Bento
Ki Açaí nordestino,ChIJUQSxR_D1AAcR4Z1vEVwl4jk,-9.0551041,-35.2409448,store,Sao Bento
PEIXARIA DO IR.DÉ & MERCADINHO CRISTÃO,ChIJDa04qb71AAcReOvXHGH598M,-9.056407700000001,-35.24188660000001,store,Sao Bento
Mercado Ro Calaça Alimentos e Bebidas,ChIJL3Vzhbz1AAcRNHr4UrlLcts,-9.053390300000002,-35.2417071,store,Sao Bento
Mercadinho Preço Baixo,ChIJQ4-70b71AAcRJtUcyOwAodA,-9.0580237,-35.2418658,store,Sao Bento
Supermercado Supermar,ChIJT-69M-b1AAcRNtoqicuAknY,-9.0589647,-35.2409169,store,Sao Bento
Mercadinho Lima,ChIJx2vCRKP1AAcR9tiYRGZXZZU,-9.050782699999997,-35.2415417,store,Sao Bento
Fábrica de Bolo de Goma da Irmã Marlene,ChIJb63QDr_1AAcRF1B33gQdj-A,-9.0606024,-35.2398248,store,Sao Bento
Mercadinho do Deré,ChIJI0Qxsrj1AAcRbpgDKv_1OeQ,-9.060795999999998,-35.2425464,store,Sao Bento
Ecobike Expediçoes Maragogi,ChIJyfCIq5f1AAcR8Sn6TULBQzM,-9.061185,-35.239781,store,Sao Bento
Açaiteria e sorveteria Santana,ChIJbxZddWT1AAcRkRAACyyZhQU,-9.061471300000001,-35.2398706,store,Sao Bento
Mercadinho Concordia,ChIJsa1WXov1AAcRF_ycCmfXHz4,-9.0469867,-35.2427146,store,Sao Bento
